stop_id,stop_code,stop_name,stop_desc,stop_lat,stop_lon,zone_id,stop_url,location_type,parent_station,stop_timezone,wheelchair_boarding
ABR_1,,Nucli urbà - Estació FGC,,41.5226059,1.9064831,,,0,,,0
AMB_000108,108,Pl Espanya - FGC,Marquesina,41.3737622,2.1471762,,https://app.ambmobilitat.cat/stops/busamb:000108,0,,,0
AMB_000389,389,Pl Espanya - FGC,Marquesina,41.3742910,2.1485750,,https://app.ambmobilitat.cat/stops/busamb:000389,0,,,1
AMB_001980,1980,Metro/FGC Av. Carrilet,Pal,41.3574890,2.1034600,,https://app.ambmobilitat.cat/stops/busamb:001980,0,,,0
AMB_002087,2087,FGC Les Planes,Marquesina,41.4271920,2.0914820,,https://app.ambmobilitat.cat/stops/busamb:002087,0,,,1
AMB_002098,2098,FGC Baixador Vallvidrera,Pal,41.4199620,2.0968660,,https://app.ambmobilitat.cat/stops/busamb:002098,0,,,1
AMB_003713,3713,Metro/FGC Europa | Fira,Pal,41.3578730,2.1248190,,https://app.ambmobilitat.cat/stops/busamb:003713,0,,,0
AMB_102154,102154,Parc de la Serp - FGC Sant Josep,Marquesina,41.3625242,2.1091641,,https://app.ambmobilitat.cat/stops/busamb:102154,0,,,0
AMB_104469,104469,Estació FGC Sant Boi,Marquesina,41.3481169,2.0430332,,https://app.ambmobilitat.cat/stops/busamb:104469,0,,,0
AMB_105184,105184,Estació FGC Molí Nou,Marquesina,41.3581830,2.0345122,,https://app.ambmobilitat.cat/stops/busamb:105184,0,,,1
AMB_105257,105257,Est. FGC Colònia Güell,Pal,41.3647214,2.0311461,,https://app.ambmobilitat.cat/stops/busamb:105257,0,,,0
AMB_106869,106869,Metro/FGC Av. Carrilet,Marquesina,41.3576811,2.1024481,,https://app.ambmobilitat.cat/stops/busamb:106869,0,,,0
AMB_107965,107965,Estació FGC Sant Boi,Marquesina,41.3478387,2.0433817,,https://app.ambmobilitat.cat/stops/busamb:107965,0,,,0
AMB_109115,109115,Av. Maria Girona - Est. FGC Sant Boi,Marquesina,41.3479398,2.0437086,,https://app.ambmobilitat.cat/stops/busamb:109115,0,,,1
AMB_109146,109146,Dr. Antoni Pujadas - Estació FGC Molí Nou,Pal,41.3572764,2.0345139,,https://app.ambmobilitat.cat/stops/busamb:109146,0,,,0
AMB_109153,109153,Est. FGC Colònia Güell,Pal,41.3644015,2.0302933,,https://app.ambmobilitat.cat/stops/busamb:109153,0,,,0
AMB_109273,109273,Estació FGC Molí Nou,Marquesina,41.3574092,2.0344337,,https://app.ambmobilitat.cat/stops/busamb:109273,0,,,1
AMB_110561,110561,Est. FGC Colònia Güell,Pal,41.3646312,2.0304921,,https://app.ambmobilitat.cat/stops/busamb:110561,0,,,0
AMB_110586,110586,Metro/FGC Av. Carrilet,Pal,41.3584595,2.1028378,,https://app.ambmobilitat.cat/stops/busamb:110586,0,,,1
AMB_200017,200017,Estació FGC Sant Vicenç,Marquesina,41.3880929,2.0122408,,https://app.ambmobilitat.cat/stops/busamb:200017,0,,,0
AMB_200165,200165,FGC La Floresta,Pal,41.4454100,2.0727075,,https://app.ambmobilitat.cat/stops/busamb:200165,0,,,0
AMB_200233,200233,Estació FGC Can Ros,Pal,41.3994797,2.0047537,,https://app.ambmobilitat.cat/stops/busamb:200233,0,,,0
AMB_200301,200301,FGC El Palau,Marquesina,41.4554775,1.9601867,,https://app.ambmobilitat.cat/stops/busamb:200301,0,,,0
AMB_200382,200382,Estació d'FGC del Palau,Pal,41.4556703,1.9623459,,https://app.ambmobilitat.cat/stops/busamb:200382,0,,,0
AMB_201357,201357,Pl. Pi - FGC Bellaterra,Marquesina,41.5009210,2.0902577,,https://app.ambmobilitat.cat/stops/busamb:201357,0,,,1
AMB_201367,201367,FGC Martorell Vila | Castellbisbal,Pal,41.4766280,1.9390766,,https://app.ambmobilitat.cat/stops/busamb:201367,0,,,0
AMB_201373,201373,FGC Martorell Vila | Castellbisbal,Pal,41.4761068,1.9387678,,https://app.ambmobilitat.cat/stops/busamb:201373,0,,,0
AMB_201488,201488,FGC Bellaterra,Pal,41.5006036,2.0910063,,https://app.ambmobilitat.cat/stops/busamb:201488,0,,,0
AMB_201518,201518,Escola Postgrau - FGC,Pal,41.5021853,2.1026858,,https://app.ambmobilitat.cat/stops/busamb:201518,0,,,0
AMB_201519,201519,Escola Postgrau - FGC,Marquesina,41.5020887,2.1027441,,https://app.ambmobilitat.cat/stops/busamb:201519,0,,,0
AMB_201522,201522,Pl. Pi - FGC Bellaterra,Pal,41.5010830,2.0902435,,https://app.ambmobilitat.cat/stops/busamb:201522,0,,,0
AMB_201534,201534,FGC - Eix Central,Marquesina,41.5037310,2.1031238,,https://app.ambmobilitat.cat/stops/busamb:201534,0,,,0
AMB_201535,201535,FGC - Eix Central,Pal,41.5038972,2.1031750,,https://app.ambmobilitat.cat/stops/busamb:201535,0,,,0
BGE_5556,5556,Parada Nord (Eix Central - FGC),,41.5038567,2.1030879,,,0,,,0
BGE_9217,9217,Estació d'Autobusos - FGC,,41.7316704,1.8333390,,,0,,,0
BGS_9217,9217,Estació d'Autobusos - FGC,,41.7316704,1.8333390,,,0,,,0
CAS_14351,5979,CAMÍ RAL (ESTACIÓ RODALIES MONTGAT - NORD),,41.4689484,2.2868500,,,0,,,0
CAS_14352,5965,CAMÍ RAL (ESTACIÓ RODALIES MONTGAT - NORD),,41.4690704,2.2866900,,,0,,,0
CAS_7059,3510,SANT ANDREU DE LLAVANERES (ESTACIÓ RODALIES),,41.5556488,2.4980600,,,0,,,0
CAS_7241,46,CALDES D´ESTRAC-ESTACIÓ RODALIES DE CATALUNYA,,41.5685005,2.5258400,,,0,,,0
CAS_7253,58,SANT ANDREU DE LLAVANERES (ESTACIÓ RODALIES),,41.5559731,2.4982200,,,0,,,0
CIN_9217,9217,Estació d'Autobusos - FGC,,41.7316704,1.8333390,,,0,,,0
FGC_AB,,Abrera,,41.5225614,1.9068054,,,0,,,0
FGC_AE,,Montserrat-Aeri,,41.5911981,1.8533616,,,0,,,0
FGC_AL,,Almeda,,41.3530675,2.0852514,,,0,,,0
FGC_AR,,Àger,,42.0067410,0.8515960,,,0,,,0
FGC_AT,,Alcoletge,,41.6547380,0.6864580,,,0,,,0
FGC_BE,,La Beguda,,41.5017639,1.8387890,,,0,,,0
FGC_BG,,Balaguer,,41.7892150,0.8147610,,,0,,,0
FGC_BN,,La Bonanova,,41.3978157,2.1364340,,,0,,,0
FGC_BO,,Sant Boi,,41.3485614,2.0428560,,,0,,,0
FGC_BT,,Bellaterra,,41.5008584,2.0905566,,,0,,,0
FGC_CA,,Capellades,,41.5215353,1.6951307,,,0,,,0
FGC_CB,,Castellbell i El Vilar,,41.6405171,1.8547935,,,0,,,0
FGC_CF,,Can Feu - Gràcia,,41.5425230,2.1004639,,,0,,,0
FGC_CG,,Colònia Güell,,41.3638634,2.0318594,,,0,,,0
FGC_CL,,Santa Coloma de Cervelló,,41.3706477,2.0235202,,,0,,,0
FGC_CO,,Cornellà Riera,,41.3514783,2.0712636,,,0,,,1
FGC_CP,,Can Parellada,,41.5022236,1.8308131,,,0,,,0
FGC_CR,,Can Ros,,41.3988206,2.0053465,,,0,,,0
FGC_CT,,La Creu Alta,,41.5549540,2.1003850,,,0,,,1
FGC_EN,,Terrassa  Estació del nord,,41.5701675,2.0154870,,,0,,,0
FGC_EP,,El Putxet,,41.4058257,2.1391515,,,0,,,0
FGC_EU,,Europa | Fira,,41.3565589,2.1241993,,,0,,,0
FGC_FN,,Les Fonts,,41.5284698,2.0335822,,,0,,,0
FGC_GB,,Gerb,,41.8233010,0.8120790,,,0,,,0
FGC_GO,,Gornal,,41.3548859,2.1174316,,,0,,,0
FGC_GR,,Gràcia,,41.3990982,2.1526623,,,0,,,0
FGC_GT,,Guardia de Tremp,,42.1013990,0.8880900,,,0,,,0
FGC_HG,,Hospital General,,41.4762092,2.0465149,,,0,,,0
FGC_IC,,Ildefons Cerdà,,41.3609087,2.1300233,,,0,,,0
FGC_IG,,Igualada,,41.5780265,1.6299511,,,0,,,0
FGC_LE,,Lleida,,41.6200980,0.6336720,,,0,,,0
FGC_LF,,La Floresta,,41.4448741,2.0731661,,,0,,,0
FGC_LH,,L'Hospitalet Av. Carrilet,,41.3579338,2.1027095,,,0,,,0
FGC_LL,,Cellers-Llimiana,,42.0586310,0.8827070,,,0,,,0
FGC_LP,,Les Planes,,41.4274026,2.0916176,,,0,,,0
FGC_LS,,Vilanova de la Sal,,41.9120700,0.8304010,,,0,,,0
FGC_MA,,Manresa-Alta,,41.7322400,1.8329860,,,0,,,0
FGC_MB,,Manresa-Baixador,,41.7314570,1.8279040,,,0,,,0
FGC_MC,,Martorell Central,,41.4792845,1.9252950,,,0,,,0
FGC_ME,,Martorell Enllaç,,41.4839694,1.9186775,,,0,,,0
FGC_MG,,Magòria La Campana,,41.3674877,2.1388794,,,0,,,0
FGC_ML,,Molí Nou - Ciutat Cooperativa,,41.3575147,2.0352769,,,0,,,0
FGC_MM,,Montserrat,,41.5922537,1.8364975,,,0,,,0
FGC_MN,,Muntaner,,41.3985264,2.1423460,,,0,,,0
FGC_MO,,Monistrol de Montserrat,,41.6103596,1.8491940,,,0,,,0
FGC_MP,,Monistrol-Vila,,41.6156279,1.8437233,,,0,,,0
FGC_MQ,,Masquefa,,41.5028840,1.8126251,,,0,,,0
FGC_MS,,Mira-Sol,,41.4693687,2.0613809,,,0,,,0
FGC_MV,,Martorell Vila,,41.4758714,1.9389569,,,0,,,0
FGC_NA,,Terrassa Nacions Unides,,41.5801339,2.0134592,,,0,,,0
FGC_NO,,Sabadell Nord,,41.5612250,2.0966570,,,0,,,1
FGC_NU,,Nuria,,42.3973285,2.1547279,,,0,,,0
FGC_OL,,Olesa de Montserrat,,41.5410591,1.8886189,,,0,,,0
FGC_PA,,Pallejà,,41.4207869,1.9956776,,,0,,,0
FGC_PC,,Barcelona - Plaça Catalunya,,41.3856319,2.1687202,,,0,,,1
FGC_PD,,Pàdua,,41.4035107,2.1427591,,,0,,,0
FGC_PE,,Barcelona - Plaça Espanya,,41.3747199,2.1484583,,,0,,,0
FGC_PF,,Peu del Funicular,,41.4092162,2.1111815,,,0,,,0
FGC_PG,,Polígon industrial del Segre,,41.6228080,0.6528060,,,0,,,0
FGC_PI,,Piera,,41.5259134,1.7545044,,,0,,,0
FGC_PJ,,Sabadell Plaça Major,,41.5474198,2.1088815,,,0,,,0
FGC_PL,,El Palau,,41.4558807,1.9622947,,,0,,,0
FGC_PM,,Pl. Molina,,41.4016938,2.1467547,,,0,,,0
FGC_PN,,Sabadell Parc del Nord,,41.5712910,2.0894990,,,0,,,1
FGC_PO,,La Pobla de Claramunt,,41.5546109,1.6779062,,,0,,,0
FGC_PR,,Provença,,41.3928143,2.1580309,,,0,,,0
FGC_PS,,La Pobla de Segur,,42.2398770,0.9659170,,,0,,,0
FGC_PT,,Palau de Noguera,,42.1470020,0.8924350,,,0,,,0
FGC_QC,,Quatre Camins,,41.4062924,2.0017152,,,0,,,0
FGC_QUE,,Queralbs,,42.3515139,2.1663511,,,0,,,0
FGC_RB,,Rubí Centre,,41.4862880,2.0313580,,,0,,,0
FGC_RE,,Reina Elisenda,,41.3987460,2.1189323,,,0,,,0
FGC_RM,,Térmens,,41.7176440,0.7648990,,,0,,,0
FGC_RR,,Ribes-Enllaç,,42.3004020,2.1663747,,,0,,,0
FGC_RV,,Ribes-Vila,,42.3087988,2.1721242,,,0,,,0
FGC_SA,,Sant Andreu de la Barca,,41.4464800,1.9736735,,,0,,,0
FGC_SC,,Sant Cugat Centre,,41.4679104,2.0782033,,,0,,,0
FGC_SD,,Salàs de Pallars,,42.2068350,0.9404630,,,0,,,0
FGC_SE,,Sant Esteve Sesrovires,,41.4976761,1.8724438,,,0,,,0
FGC_SG,,Sant Gervasi,,41.4010661,2.1471338,,,0,,,0
FGC_SJ,,Sant Joan,,41.4901539,2.0764986,,,0,,,0
FGC_SM,,St. Llorenç de Montgai,,41.8663790,0.8325710,,,0,,,0
FGC_SN,,Santa Linya,,41.9315600,0.8523120,,,0,,,0
FGC_SP,,Sant Josep,,41.3607010,2.1099167,,,0,,,0
FGC_SQ,,Sant Quirze,,41.5299916,2.0887225,,,0,,,0
FGC_SR,,Sarrià,,41.3984994,2.1255749,,,0,,,0
FGC_SV,,Sant Vicenç-Castellgalí,,41.6679102,1.8596058,,,0,,,0
FGC_TB,,Av. Tibidabo,,41.4096480,2.1371628,,,0,,,0
FGC_TP,,Tremp,,42.1673480,0.8910570,,,0,,,0
FGC_TR,,Terrassa - Rambla,,41.5597463,2.0075253,,,0,,,0
FGC_TT,,Les Tres Torres,,41.3978004,2.1308118,,,0,,,0
FGC_UN,,Universitat Autònoma,,41.5028528,2.1025104,,,0,,,0
FGC_VA,,Vallbona d'Anoia,,41.5202598,1.7090107,,,0,,,0
FGC_VB,,Vilanova de la Barca,,41.6873470,0.7279030,,,0,,,0
FGC_VD,,Valldoreix,,41.4578416,2.0683120,,,0,,,0
FGC_VF,,Vallfogona de Balaguer,,41.7550940,0.8052470,,,0,,,0
FGC_VH,,Sant Vicenç dels Horts,,41.3881084,2.0123990,,,0,,,0
FGC_VI,,Manresa Viladordis,,41.7243699,1.8339860,,,0,,,0
FGC_VL,,Baixador de Vallvidrera,,41.4200944,2.0969368,,,0,,,0
FGC_VN,,Vilanova del Camí,,41.5733147,1.6420092,,,0,,,0
FGC_VO,,Volpelleres,,41.4812480,2.0729280,,,0,,,0
FGC_VP,,Vallparadís Universitat,,41.5633063,2.0190489,,,0,,,0
FGC_VR,,Vallvidrera Inferior,,41.4093280,2.1112630,,,0,,,0
FGC_VS,,Vallvidrera Superior,,41.4141117,2.1058163,,,0,,,0
GEN_PF08019102,,Via Augusta (Estació FGC Sarrià),,41.3984261,2.1258388,,,0,,,0
GEN_PF08019103,,pl. Gal·la Placídia (Estació FGC Gràcia),,41.3995743,2.1522710,,,0,,,0
GEN_PF08019104,,pl. Molina (Estació FGC),,41.4008751,2.1479275,,,0,,,0
GEN_PF08053003,,el Burès (Estació d'FGC),,41.6392136,1.8571397,,,0,,,0
GEN_PF08054059,,Estació d'FGC Martorell-Vila (D),,41.4761620,1.9388610,,,0,,,0
GEN_PF08054083,,Estació d'FGC Martorell-Vila (A),,41.4766274,1.9390109,,,0,,,0
GEN_PF08114028,,Estació d'FGC Enllaç (av.Comte del Llobregat) (A),,41.4833183,1.9188099,,,0,,,0
GEN_PF08114051,,Estació d'FGC Enllaç (av.Comte del Llobregat) (D),,41.4831505,1.9189265,,,0,,,0
GEN_PF08147003,,Estació d'FGC d'Olesa,,41.5411034,1.8888921,,,0,,,0
GEN_PF08161005,,Estació d'FGC de Piera,,41.5260696,1.7541494,,,0,,,0
GEN_PF08165003,,Estació d'FGC de la Pobla,,41.5542336,1.6779741,,,0,,,0
GEN_PF08184051,,Estació d'FGC - av. Can Cabanyes (D),,41.4860840,2.0320177,,,0,,,0
GEN_PF08184066,,Estació d'FGC - av. Can Cabanyes (A),,41.4855919,2.0319610,,,0,,,0
GEN_PF08187184,,rbla. Ibèria (Estació FGC Can Feu) (A),,41.5428314,2.0991950,,,0,,,0
GEN_PF08187185,,rbla. Ibèria (Estació FGC Can Feu) (D),,41.5429878,2.0990977,,,0,,,0
GEN_PF08196011,,Estació d'FGC de Sant Andreu,,41.4464226,1.9732448,,,0,,,0
GEN_PF08196015,,Estació d'FGC del Palau (Camí Vell del Palau),,41.4555511,1.9601611,,,0,,,0
GEN_PF08196045,,Estació d'FGC del Palau (c. Anoia),,41.4557381,1.9621257,,,0,,,0
GEN_PF08200027,,Estació d'FGC de Molí Nou,,41.3580818,2.0344799,,,0,,,0
GEN_PF08200032,,c. Dr. Pujadas (Estació FGC Molí Nou),,41.3574600,2.0343337,,,0,,,0
GEN_PF08200041,,av. Marià Girona (Estació d'FGC),,41.3479156,2.0432124,,,0,,,0
GEN_PF08200042,,c. Torras i Bages (Estació d'FGC),,41.3478851,2.0432010,,,0,,,0
GEN_PF08205012,,c. Àngel Guimerà (Estacio d'FGC),,41.4672279,2.0798557,,,0,,,0
GEN_PF08205025,,c. Safareigs (Estació d'FGC) (A),,41.4667168,2.0786161,,,0,,,0
GEN_PF08205042,,Estació d'FGC de Mira-sol (D),,41.4689331,2.0616844,,,0,,,0
GEN_PF08205053,,Estació d'FGC de Sant Joan,,41.4906578,2.0766957,,,0,,,0
GEN_PF08205076,,av. Clota (Estació FGC Volpelleres) (A),,41.4819145,2.0698209,,,0,,,0
GEN_PF08205092,,Estació d'FGC de Mira-sol (A),,41.4689751,2.0616026,,,0,,,0
GEN_PF08205094,,av. Clota (Estació FGC Volpelleres) (D),,41.4808006,2.0695555,,,0,,,0
GEN_PF08205320,,c. Safareigs (Estació d'FGC) (D),,41.4667816,2.0794051,,,0,,,0
GEN_PF08238064,,Estació d'FGC (ctra. Sabadell)  parada bus davant parking,,41.5303917,2.0876629,,,0,,,0
GEN_PF08244007,,Estació d'FGC Colònia Güell (A),,41.3644066,2.0303218,,,0,,,0
GEN_PF08244008,,Estació d'FGC de Santa Coloma,,41.3697472,2.0236297,,,0,,,0
GEN_PF08244016,,Estació d'FGC Colònia Güell (D),,41.3647270,2.0311265,,,0,,,0
GEN_PF08256052,,Estació d'FGC Enllaç (pl. Joan Serrats - Pastisseria Roma),,41.4830551,1.9181156,,,0,,,0
GEN_PF08263003,,Estació FGC Sant Vicenç-Vila (ctra.) (D),,41.3891144,2.0138912,,,0,,,0
GEN_PF08263032,,Estació d'FGC Sant Vicenç-Vila (c. Ferrés),,41.3880425,2.0121522,,,0,,,0
GEN_PF08263065,,Estació FGC Sant Vicenç-Vila (ctra.) (A),,41.3887215,2.0139301,,,0,,,0
GEN_PF08266001,,Estació d'FGC de Bellaterra (pl. Pi),,41.5010338,2.0903964,,,0,,,0
GEN_PF08266024,,UAB (Escola Postgrau-FGC) (D),,41.5021133,2.1027150,,,0,,,0
GEN_PF08266068,,UAB (FGC - Eix Central) (A),,41.5037346,2.1031315,,,0,,,0
GEN_PF08266110,,UAB (FGC - Eix Central) (D),,41.5038109,2.1032815,,,0,,,0
GEN_PF08266140,,UAB (Escola Postgrau-FGC) (A),,41.5021667,2.1026852,,,0,,,0
GEN_PF08266147,,Estació d'FGC de Bellaterra (c. Vila Puig),,41.5006142,2.0910041,,,0,,,0
GEN_PF08279035,,Rbla d'Ègara - c. Blasco de Garay Estació d'FGC Rambla (H),,41.5600853,2.0077715,,,0,,,0
GEN_PF08279037,,Estació del Nord (boca FGC),,41.5700340,2.0152566,,,0,,,0
GEN_PF08279102,,Estació d'FGC Rambla (AH) PD,,41.5599251,2.0075760,,,0,,,0
GEN_PF08292000,,c. Major (Estació d'FGC),,41.5200653,1.7094343,,,0,,,0
GEN_PF08292001,,Estació d'FGC de Capellades,,41.5214729,1.6951321,,,0,,,0
GEN_PF25040005,,Balaguer (estació FGC-2),,41.7891006,0.8144566,,,0,,,0
GEN_PF25040006,,Balaguer (estació FGC-1),,41.7891388,0.8145637,,,0,,,0
MAN_9209,9209,FGC Viladordis,,41.7249947,1.8342700,,,0,,,0
MAN_9217,9217,Estació d'Autobusos - FGC,,41.7316704,1.8333390,,,0,,,0
PIE_1,,Piera FGC,,41.5259972,1.7542289,,,0,,,0
PUJ_19314,300020,MERCE RODOREDA,,41.6599312,2.7813609,,,0,,,0
ROD_65411,,Salou - Port Aventura,,41.0870700,1.1454860,,,0,,,
ROD_71105,,Quinto,,41.4195280,-0.4906730,,,0,,,
ROD_71108,,La Zaida-Sástago,,41.3205420,-0.4271150,,,0,,,
ROD_71200,,La Puebla de Híjar,,41.2244000,-0.4385950,,,0,,,
ROD_71201,,Samper,,41.1821830,-0.3687610,,,0,,,
ROD_71204,,Casp,,41.2397380,-0.0427010,,,0,,,
ROD_71206,,Favara,,41.2344050,0.1432840,,,0,,,
ROD_71207,,Nonasp,,41.2137880,0.2424720,,,0,,,
ROD_71208,,Faió - la Pobla de Massaluca,,41.2252470,0.3502750,,,0,,,
ROD_71209,,Riba-roja d'Ebre,,41.2484510,0.4808880,,,0,,,
ROD_71210,,Flix,,41.2295020,0.5400710,,,0,,,
ROD_71211,,Ascó,,41.1824790,0.5689640,,,0,,,
ROD_71300,,Mora la Nova,,41.1063740,0.6528930,,,0,,,
ROD_71302,,Capçanes,,41.1020570,0.7803300,,,0,,,
ROD_71303,,Marçà - Falset,,41.1309450,0.8103280,,,0,,,
ROD_71304,,Pradell,,41.1332400,0.8583710,,,0,,,
ROD_71305,,Duesaigües - l'Argentera,,41.1437760,0.9209420,,,0,,,
ROD_71306,,Riudecanyes - Botarell,,41.1400270,0.9756480,,,0,,,
ROD_71307,,Les Borges del Camp,,41.1655250,1.0207740,,,0,,,
ROD_71400,,Reus,,41.1605240,1.0999790,,,0,,,
ROD_71401,,Vila-seca,,41.1127440,1.1503890,,,0,,,
ROD_71500,,Tarragona,,41.1116240,1.2532140,,,0,,,
ROD_71502,,Altafulla - Tamarit,,41.1364460,1.3745300,,,0,,,
ROD_71503,,Torredembarra,,41.1428570,1.4056600,,,0,,,
ROD_71600,,Sant Vicenç de Calders,,41.1861670,1.5247970,,,0,,,
ROD_71601,,Calafell,,41.1896510,1.5749930,,,0,,,
ROD_71602,,Segur de Calafell,,41.1925620,1.6064310,,,0,,,
ROD_71603,,Cunit,,41.1950360,1.6318760,,,0,,,
ROD_71604,,Cubelles,,41.2043400,1.6759570,,,0,,,
ROD_71700,,Vilanova i la Geltrú,,41.2203890,1.7307220,,,0,,,
ROD_71701,,Sitges,,41.2390638,1.8097207,,,0,,,
ROD_71703,,Garraf,,41.2539640,1.9023570,,,0,,,
ROD_71704,,Platja de Castelldefels,,41.2668420,1.9571810,,,0,,,
ROD_71705,,Castelldefels,,41.2787550,1.9790930,,,0,,,
ROD_71706,,Gavà,,41.3034170,2.0104440,,,0,,,
ROD_71707,,El Prat de Llobregat,,41.3306260,2.0899080,,,0,,,
ROD_71708,,Bellvitge | Gornal,,41.3550465,2.1154943,,,0,,,
ROD_71709,,Viladecans,,41.3094070,2.0277000,,,0,,,
ROD_71801,,Barcelona Sants,,41.3795200,2.1406240,,,0,,,
ROD_71802,,Passeig de Gràcia,,41.3922810,2.1648960,,,0,,,
ROD_72101,,Roda de Mar,,41.1863150,1.4551443,,,0,,,
ROD_72201,,El Vendrell,,41.2211840,1.5377430,,,0,,,
ROD_72202,,L'Arboç,,41.2730250,1.6001200,,,0,,,
ROD_72203,,Els Monjos,,41.3147520,1.6598530,,,0,,,
ROD_72204,,Vilafranca del Penedès,,41.3448110,1.7031120,,,0,,,
ROD_72205,,La Granada,,41.3710160,1.7250360,,,0,,,
ROD_72206,,Lavern - Subirats,,41.3956570,1.7681820,,,0,,,
ROD_72207,,Sant Sadurní d'Anoia,,41.4205880,1.7946390,,,0,,,
ROD_72208,,Gelida,,41.4485310,1.8654980,,,0,,,
ROD_72209,,Martorell Centre,,41.4787870,1.9264590,,,0,,,
ROD_72210,,Castellbisbal,,41.4734723,1.9676144,,,0,,,
ROD_72211,,El Papiol,,41.4353930,2.0026470,,,0,,,
ROD_72300,,Molins de Rei,,41.4098440,2.0205700,,,0,,,
ROD_72301,,Sant Feliu de Llobregat,,41.3829350,2.0478340,,,0,,,
ROD_72302,,Sant Joan Despí,,41.3685400,2.0601470,,,0,,,
ROD_72303,,Cornellà,,41.3574690,2.0705660,,,0,,,
ROD_72305,,L'Hospitalet de Llobregat,,41.3640750,2.1007110,,,0,,,
ROD_72400,,Aeroport,,41.3044167,2.0738758,,,0,,,
ROD_72501,,Rubí Centre,,41.4751780,2.0371000,,,0,,,
ROD_72502,,Sant Cugat Coll Favà,,41.4809730,2.0797310,,,0,,,
ROD_72503,,Cerdanyola Universitat,,41.4971070,2.1154820,,,0,,,
ROD_72508,,Santa Perpètua de Mogoda Riera de Caldes,,41.5263270,2.1864630,,,0,,,
ROD_73100,,La Plana - Picamoixons,,41.3059700,1.1976650,,,0,,,
ROD_76001,,Salomó,,41.2234740,1.3766170,,,0,,,
ROD_76002,,Vilabella,,41.2403120,1.3156010,,,0,,,
ROD_76003,,Nulles - Bràfim,,41.2503060,1.2974490,,,0,,,
ROD_76004,,Valls,,41.2896300,1.2587340,,,0,,,
ROD_77002,,Montcada-Ripollet,,41.4968022,2.1819284,,,0,,,
ROD_77003,,Santa Perpètua De Mogoda La Florida,,41.5262041,2.1862338,,,0,,,
ROD_77004,,Mollet-Santa Rosa,,41.5366617,2.2061687,,,0,,,
ROD_77005,,Parets Del Vallès,,41.5562690,2.2260041,,,0,,,
ROD_77006,,Granollers-Canovelles,,41.6114637,2.2768607,,,0,,,
ROD_77100,,Les Franqueses Del Vallès,,41.6297885,2.2951646,,,0,,,
ROD_77102,,La Garriga,,41.6846272,2.2887956,,,0,,,
ROD_77103,,Figaró,,41.7209870,2.2716250,,,0,,,
ROD_77104,,Sant Martí de Centelles - Aiguafreda,,41.7605830,2.2489300,,,0,,,
ROD_77105,,Centelles,,41.7993947,2.2226355,,,0,,,
ROD_77106,,Balenyà - Els Hostalets,,41.8149380,2.2333150,,,0,,,
ROD_77107,,Balenyà - Tona - Seva,,41.8418680,2.2475190,,,0,,,
ROD_77109,,Vic,,41.9310958,2.2488567,,,0,,,
ROD_77110,,Manlleu,,41.9998797,2.2693313,,,0,,,
ROD_77111,,Torelló,,42.0520113,2.2599898,,,0,,,
ROD_77112,,Borgonyà,,42.0644000,2.2427800,,,0,,,
ROD_77113,,Sant Quirze de Besora,,42.1048250,2.2177120,,,0,,,
ROD_77114,,La Farga de Bebié,,42.1301440,2.2038910,,,0,,,
ROD_77200,,Ripoll,,42.1959210,2.1961610,,,0,,,
ROD_77301,,Campdevànol,,42.2218050,2.1656720,,,0,,,
ROD_77303,,Ribes de Freser,,42.2986850,2.1653590,,,0,,,
ROD_77304,,Planoles,,42.3143380,2.0997690,,,0,,,
ROD_77305,,Toses,,42.3210180,2.0152690,,,0,,,
ROD_77306,,La Molina,,42.3445250,1.9559830,,,0,,,
ROD_77307,,Urtx - Alp,,42.3768630,1.8967690,,,0,,,
ROD_77309,,Puigcerdà,,42.4295064,1.9247664,,,0,,,
ROD_77310,,La Tor de Querol - Enveig,,42.4590596,1.9044881,,,0,,,
ROD_78400,,Lleida Pirineus,,41.6206960,0.6326690,,,0,,,
ROD_78402,,Bell-lloc d'Urgell,,41.6316190,0.7815470,,,0,,,
ROD_78403,,Mollerussa,,41.6317790,0.8967750,,,0,,,
ROD_78404,,Golmés,,41.6359290,0.9308630,,,0,,,
ROD_78405,,Castellnou de Seana,,41.6374640,0.9677360,,,0,,,
ROD_78406,,Bellpuig,,41.6325450,1.0129930,,,0,,,
ROD_78407,,Anglesola,,41.6464480,1.0791920,,,0,,,
ROD_78408,,Tàrrega,,41.6503870,1.1389630,,,0,,,
ROD_78500,,Cervera,,41.6736110,1.2747730,,,0,,,
ROD_78600,,Manresa,,41.7203930,1.8271850,,,0,,,
ROD_78604,,Sant Vicenç de Castellet,,41.6688510,1.8626490,,,0,,,
ROD_78605,,Castellbell i el Vilar - Monistrol de Montserrat,,41.6284000,1.8685500,,,0,,,
ROD_78606,,Vacarisses,,41.6019146,1.8940587,,,0,,,
ROD_78607,,Vacarisses - Torreblanca,,41.5867590,1.9169210,,,0,,,
ROD_78609,,Viladecavalls,,41.5638530,1.9571440,,,0,,,
ROD_78610,,Sant Miquel de Gonteres - Viladecavalls,,41.5688550,1.9742130,,,0,,,
ROD_78700,,Terrassa Estació del Nord,,41.5697963,2.0142891,,,0,,,
ROD_78703,,Sabadell Sud,,41.5287160,2.1053950,,,0,,,
ROD_78704,,Sabadell Centre,,41.5463908,2.1156653,,,0,,,
ROD_78705,,Barberà del Vallès,,41.5136150,2.1185350,,,0,,,
ROD_78706,,Cerdanyola del Vallès,,41.4926270,2.1474300,,,0,,,
ROD_78707,,Montcada i Reixac Santa Maria,,41.4811540,2.1670670,,,0,,,
ROD_78708,,Montcada i Reixac Manresa,,41.4839510,2.1853510,,,0,,,
ROD_78709,,Sabadell Nord,,41.5624010,2.0959100,,,0,,,
ROD_78710,,Terrassa Est,,41.5675150,2.0394060,,,0,,,
ROD_78800,,Montcada Bifurcació,,41.4697914,2.1800120,,,0,,,
ROD_78801,,Torre del Baró | Vallbona,,41.4616188,2.1803793,,,0,,,
ROD_78802,,Fabra I Puig,,41.4303481,2.1833291,,,0,,,
ROD_78804,,Arc de Triomf,,41.3916460,2.1802710,,,0,,,
ROD_78805,,Plaça de Catalunya,,41.3873700,2.1688560,,,0,,,
ROD_78806,,La Sagrera Meridiana,,41.4219580,2.1871150,,,0,,,
ROD_79004,,Sant Andreu,,41.4360830,2.1930970,,,0,,,
ROD_79005,,Montcada i Reixac,,41.4842380,2.1880935,,,0,,,
ROD_79006,,Mollet - Sant Fost,,41.5335790,2.2175700,,,0,,,
ROD_79007,,Montmeló,,41.5498745,2.2458008,,,0,,,
ROD_79009,,El Clot,,41.4091880,2.1871480,,,0,,,
ROD_79011,,La Llagosta,,41.5104730,2.1997680,,,0,,,
ROD_79100,,Granollers Centre,,41.5997050,2.2910870,,,0,,,
ROD_79101,,Cardedeu,,41.6367190,2.3562030,,,0,,,
ROD_79102,,Llinars del Vallès,,41.6380960,2.4045510,,,0,,,
ROD_79103,,Palautordera,,41.6715570,2.4538140,,,0,,,
ROD_79104,,Sant Celoni,,41.6858770,2.4905540,,,0,,,
ROD_79105,,Gualba,,41.7181710,2.5386170,,,0,,,
ROD_79106,,Riells i Viabrea - Breda,,41.7263399,2.5689040,,,0,,,
ROD_79107,,Hostalric,,41.7477220,2.6314830,,,0,,,
ROD_79109,,Les Franqueses - Granollers Nord,,41.6171290,2.2944340,,,0,,,
ROD_79200,,Maçanet - Massanes,,41.7730560,2.6735720,,,0,,,
ROD_79202,,Sils,,41.8076830,2.7448600,,,0,,,
ROD_79203,,Caldes de Malavella,,41.8410980,2.8007650,,,0,,,
ROD_79204,,Riudellots,,41.8962320,2.8115990,,,0,,,
ROD_79205,,Fornells de la Selva,,41.9351570,2.8097320,,,0,,,
ROD_79300,,Girona,,41.9793030,2.8170060,,,0,,,
ROD_79301,,Celrà,,42.0272300,2.8749690,,,0,,,
ROD_79302,,Bordils - Juià,,42.0370680,2.9152550,,,0,,,
ROD_79303,,Flaçà,,42.0475960,2.9575060,,,0,,,
ROD_79304,,Sant Jordi Desvalls,,42.0683190,2.9645330,,,0,,,
ROD_79305,,Camallera,,42.1223590,2.9654480,,,0,,,
ROD_79306,,Sant Miquel de Fluvià,,42.1720870,2.9896630,,,0,,,
ROD_79308,,Vilamalla,,42.2162020,2.9778740,,,0,,,
ROD_79309,,Figueres,,42.2650650,2.9687870,,,0,,,
ROD_79311,,Vilajuïga,,42.3257390,3.0853850,,,0,,,
ROD_79312,,Llançà,,42.3665949,3.1489870,,,0,,,
ROD_79314,,Colera,,42.4070680,3.1542620,,,0,,,
ROD_79315,,Portbou,,42.4244940,3.1578580,,,0,,,
ROD_79400,,Barcelona Estació de França,,41.3845350,2.1851900,,,0,,,
ROD_79403,,Sant Adrià de Besòs,,41.4246650,2.2307610,,,0,,,
ROD_79404,,Badalona,,41.4459210,2.2488930,,,0,,,
ROD_79405,,Montgat,,41.4630190,2.2720980,,,0,,,
ROD_79406,,Montgat Nord,,41.4688220,2.2867550,,,0,,,
ROD_79407,,El Masnou,,41.4771360,2.3107020,,,0,,,
ROD_79408,,Ocata,,41.4790510,2.3196480,,,0,,,
ROD_79409,,Premià de Mar,,41.4876400,2.3546980,,,0,,,
ROD_79410,,Vilassar de Mar,,41.5004540,2.3894730,,,0,,,
ROD_79412,,Cabrera de Mar - Vilassar de Mar,,41.5068580,2.4015910,,,0,,,
ROD_79500,,Mataró,,41.5333991,2.4455352,,,0,,,
ROD_79501,,Sant Andreu de Llavaneres,,41.5557220,2.4984620,,,0,,,
ROD_79502,,Caldes d'Estrac,,41.5686400,2.5259840,,,0,,,
ROD_79600,,Arenys de Mar,,41.5777000,2.5493430,,,0,,,
ROD_79601,,Canet de Mar,,41.5867160,2.5812100,,,0,,,
ROD_79602,,Sant Pol de Mar,,41.6018110,2.6245840,,,0,,,
ROD_79603,,Calella,,41.6145890,2.6657160,,,0,,,
ROD_79604,,Pineda de Mar,,41.6223960,2.6935170,,,0,,,
ROD_79605,,Malgrat de Mar,,41.6417760,2.7415290,,,0,,,
ROD_79606,,Blanes,,41.6734510,2.7692650,,,0,,,
ROD_79607,,Tordera,,41.7072420,2.7193040,,,0,,,
ROD_79608,,Santa Susanna,,41.6302160,2.7162700,,,0,,,
RUB_232,,Estació FGC,,41.4860954,2.0319870,,,0,,,0
RUB_233,,Estació FGC,,41.4856911,2.0319791,,,0,,,0
SAB_11652,9960,ALFONS D'ARAGÒ / FGC VOLPELLERES,,41.4809952,2.0733485,,,0,,,0
SAB_12834,7336,RAMBLA FGC,,41.5598946,2.0077758,,,0,,,0
SAB_13180,5861,RODALIES CERDANYOLA UNIVERSITAT,,41.4972115,2.1156967,,,0,,,0
SAB_13676,2997,PL. DEL PI / ESTACIÓ FGC,,41.5009193,2.0902576,,,0,,,0
SAB_13871,9338,UAB ESCOLA DE POSTGRAU (FGC),,41.5021706,2.1027000,,,0,,,0
SAB_16999,2656,AV. TARONGER/PG. EUCALIPTUS,,41.4914093,1.9836900,,,0,,,0
SAB_17007,2658,AV. TARONGER/PG. EUCALIPTUS,,41.4913788,1.9838099,,,0,,,0
SAB_19892,1476,BROLLADOR-EUCALIPTUS,,41.4555931,2.0415812,,,0,,,0
SAB_21660,5492,UAB ESCOLA DE POSTGRAU (FGC),,41.5020943,2.1027501,,,0,,,0
SAB_23260,2772,SAFAREIGS / ÀNGEL GUIMERÀ (FGC SANT CUGAT),,41.4668694,2.0794139,,,0,,,0
SAB_3782,3782,GRÀCIA FGC,,41.3996696,2.1522501,,,0,,,0
SAB_3783,3783,SARRIÀ FGC,,41.3984299,2.1258416,,,0,,,0
SAB_3792,3792,PL MOLINA FGC,,41.4008293,2.1479051,,,0,,,0
SAB_3816,3816,PL. JOAN BORRÀS / FGC MIRA-SOL,,41.4690056,2.0621545,,,0,,,0
SAB_3824,3824,MIRA-SOL FGC,,41.4689789,2.0621428,,,0,,,0
SAB_3831,3831,ESTACIÓ BELLATERRA FGC,,41.5006294,2.0910406,,,0,,,0
SAB_5195,5195,AV. CATALUNYA (RODALIES),,41.4927483,2.1473100,,,0,,,0
SAB_5556,5556,ESTACIÓ FGC,,41.5037537,2.1032064,,,0,,,0
SAB_6120,6120,AV DE MATADEPERA / C. DE MERÇÈ RODOREDA,,41.5712585,2.0831001,,,0,,,0
SAB_8064,8064,PG.FRANCESC MACIÀ (RODALIES),,41.4799042,2.0806224,,,0,,,0
SAB_8088,8088,PG. FRANCESC MACIÀ (RODALIES),,41.4801559,2.0808704,,,0,,,0
SSI_15747,8737,FGC St. Vicenç,,41.3880653,2.0121579,,,0,,,0
SSI_7947,200017,FGC Sant Vicenç,,41.3880157,2.0122027,,,0,,,0
SSI_8125,1628,FGC Colònia Güell,,41.3644104,2.0303323,,,0,,,0
SSI_8127,1729,FGC Molí Nou,,41.3572502,2.0345199,,,0,,,0
SSI_8137,1604,Carles Martí i Vila - FGC Sant Boi,,41.3487740,2.0405290,,,0,,,0
SSI_8138,1624,J. Torras i Bages - FGC Sant Boi,,41.3478241,2.0433757,,,0,,,0
SSI_8148,1747,FGC Molí Nou,,41.3580742,2.0345302,,,0,,,0
SSI_8149,9627,FGC Colònia Güell,,41.3645859,2.0310919,,,0,,,0
SSI_8155,1399,Av. Marià Girona - Estació FGC Sant Boi,,41.3481102,2.0430310,,,0,,,0
SSI_8214,2777,FGC Martorell Enllaç,,41.4832497,1.9188895,,,0,,,0
SSL_17452,6032,FGC Martorell Enllaç,,41.4833183,1.9181490,,,0,,,0
SSL_19011,2676,Pl. Joan Serrats  FGC Martorell Enllaç,,41.4832115,1.9177600,,,0,,,0
SSL_9306,7416,RENFE - FGC Martorell Central,,41.4786339,1.9250669,,,0,,,0
SSL_9368,9864,RENFE - FGC Martorell Central,,41.4787941,1.9251200,,,0,,,0
SVH_6253,6245,Estació FGC Can Ros,,41.3994560,2.0047290,,,0,,,0
SVH_6295,8737,FGC Sant Vicenç dels Horts,,41.3880577,2.0122039,,,0,,,0
TEI_86A,,CAMPRODON,Camprodon - Camí del Camp de la Vila - Estació d'autobusos,42.3097305,2.3652000,,,0,,,0
TGO_161018,,Rubí. Estació FGC,,41.4855461,2.0319116,,,0,,,0
TGO_19302,,Bellaterra Universitat Autónoma Eix Central - FGC,,41.5038986,2.1031749,,,0,,,0
TGO_201367,,FGC Martorell Vila | Castellbisbal,,41.4766274,1.9390765,,,0,,,0
TGO_201373,,FGC Martorell Vila | Castellbisbal,,41.4761086,1.9387678,,,0,,,0
TGO_22204a,,Terrassa Estació FGC Rambla (direcció Matadepera),,41.5600204,2.0077720,,,0,,,0
TGO_22204t,,Terrassa Estació FGC Rambla (direcció Estació autbusos),,41.5598526,2.0075550,,,0,,,0
TGO_29208,,Castellbell El Bures - FGC - anada,,41.6388512,1.8563930,,,0,,,0
TGO_29209,,Castellbell El Bures - FGC - tornada,,41.6393585,1.8569870,,,0,,,0
TGO_64007,,Estació FGC Olesa de Montserrat,,41.5412674,1.8886830,,,0,,,0
TGO_740006,,St. Andreu de la Barca. FGC El Palau,,41.4555130,1.9601110,,,0,,,0
TGO_755016,,Castellbisbal. FGC Martorell Vila/Castellbisbal Sentit Nucli Urbà,,41.4762039,1.9388289,,,0,,,0
TGO_76005,,Martorell Estació FGC Martorell Vila-Castellbisbal,,41.4765892,1.9390510,,,0,,,0
TMB_2.108.698907,108,Pl Espanya - FGC,,41.3737620,2.1471760,,,0,,,1
TMB_2.2087.694119,2087,FGC Les Planes,,41.4271920,2.0914820,,,0,,,0
TMB_2.2098.676084,2098,FGC Baixador Vallvidrera,,41.4199620,2.0968660,,,0,,,0
TMB_2.2127.682482,2127,Camí del Sanatori - FGC Baixador de Vallvidrera,,41.4208600,2.0964950,,,0,,,0
TMB_2.3713.695559,3713,Metro/FGC Europa - Fira,,41.3578730,2.1248190,,,0,,,0
TMB_E.52111,52111,Rosselló / FGC,,41.3942460,2.1588610,,,2,TMB_P.6660328,,2
TUS_14057,1,Can Deu,,41.5758705,2.0865815,,,0,,,0
TUS_14058,10,Berenguer el Gran,,41.5619926,2.0933409,,,0,,,0
TUS_14059,104,Ramon Berenguer,,41.5265236,2.1241379,,,0,,,0
TUS_14060,105,Castelao,,41.5272102,2.1214986,,,0,,,0
TUS_14061,106,Saboneria,,41.5282898,2.1203129,,,0,,,0
TUS_14062,107,Almogàvers,,41.5296516,2.1186769,,,0,,,0
TUS_14063,11,Espanya,,41.5616035,2.0957601,,,0,,,0
TUS_14064,113,Sarasate,,41.5507927,2.0802891,,,0,,,0
TUS_14065,115,Bertha von Suttner,,41.5564003,2.0766306,,,0,,,0
TUS_14066,116,Mark Twain,,41.5557785,2.0716577,,,0,,,0
TUS_14067,117,Av. La Pau,,41.5533447,2.0682890,,,0,,,0
TUS_14068,118,Nou,,41.5502930,2.0775588,,,0,,,0
TUS_14069,119,Albéniz,,41.5494041,2.0809221,,,0,,,0
TUS_14070,12,Pl. Concòrdia,,41.5584412,2.0967419,,,0,,,0
TUS_14071,120,Turina,,41.5486145,2.0837438,,,0,,,0
TUS_14072,121,Sicília,,41.5473289,2.0851867,,,0,,,0
TUS_14073,122,Els Merinals,,41.5448952,2.0871286,,,0,,,0
TUS_14074,123,La Palma,,41.5434608,2.0887864,,,0,,,0
TUS_14075,124,Argentina,,41.5440331,2.0908837,,,0,,,0
TUS_14076,126,Can Feu,,41.5437737,2.0939362,,,0,,,0
TUS_14077,127,Pintor Borrassà,,41.5413857,2.0956583,,,0,,,0
TUS_14078,128,Ibèria - Estació FGC,,41.5426865,2.0991933,,,0,,,0
TUS_14079,13,Francesc Macià,,41.5544434,2.0974445,,,0,,,0
TUS_14080,130,Vallès,,41.5458412,2.1025352,,,0,,,0
TUS_14081,131,Mercat Central,,41.5476227,2.1049869,,,0,,,0
TUS_14082,132,Les Valls,,41.5486870,2.1076691,,,0,,,0
TUS_14083,134,Tres Creus,,41.5461121,2.1127760,,,0,,,0
TUS_14084,135,Estació Centre,,41.5460548,2.1160591,,,0,,,0
TUS_14085,136,Universitat,,41.5459137,2.1197338,,,0,,,0
TUS_14086,137,La Bassa,,41.5431557,2.1236389,,,0,,,0
TUS_14087,138,Ripoll,,41.5472069,2.1233709,,,0,,,0
TUS_14088,14,La Creu Alta,,41.5555878,2.1021600,,,0,,,0
TUS_14089,140,Francolí,,41.5496750,2.1230168,,,0,,,0
TUS_14090,141,Cardener,,41.5485992,2.1242559,,,0,,,0
TUS_14091,142,Ebre,,41.5465050,2.1284831,,,0,,,0
TUS_14092,145,Polígon Can Roqueta,,41.5376511,2.1315622,,,0,,,0
TUS_14093,147,Louis Braille,,41.5621071,2.0760458,,,0,,,0
TUS_14094,148,Walter Benjamin,,41.5612144,2.0760512,,,0,,,0
TUS_14095,149,Marcel·lí Massana,,41.5559273,2.0734494,,,0,,,0
TUS_14096,15,Onze de Setembre,,41.5534782,2.1042359,,,0,,,0
TUS_14097,151,Can Bordoll,,41.5421143,2.1303015,,,0,,,0
TUS_14098,152,Ebre,,41.5473747,2.1285098,,,0,,,0
TUS_14099,153,Sau,,41.5493240,2.1282363,,,0,,,0
TUS_14100,154,Torre-romeu,,41.5512314,2.1272762,,,0,,,0
TUS_14101,155,Arraona,,41.5536537,2.1264822,,,0,,,0
TUS_14102,156,Cementiri,,41.5575714,2.1256452,,,0,,,0
TUS_14103,157,Begoña,,41.5600739,2.1282470,,,0,,,0
TUS_14104,158,El Poblenou,,41.5611420,2.1283062,,,0,,,0
TUS_14105,16,Massagué,,41.5510597,2.1069825,,,0,,,0
TUS_14106,163,Almudena,,41.5603714,2.1307628,,,0,,,0
TUS_14107,164,Begoña,,41.5595856,2.1283166,,,0,,,0
TUS_14108,165,Cementiri,,41.5573883,2.1255648,,,0,,,0
TUS_14109,166,Arraona,,41.5539513,2.1261387,,,0,,,0
TUS_14110,167,Torre-romeu,,41.5510139,2.1265841,,,0,,,0
TUS_14111,168,Sau,,41.5492439,2.1278985,,,0,,,0
TUS_14112,169,Ebre,,41.5469322,2.1277320,,,0,,,0
TUS_14113,17,Manresa,,41.5481720,2.1085274,,,0,,,0
TUS_14114,170,Cardener,,41.5483093,2.1235852,,,0,,,0
TUS_14115,171,Karl Marx,,41.5491829,2.1225877,,,0,,,0
TUS_14116,172,Segre,,41.5493240,2.1211553,,,0,,,0
TUS_14117,173,Ripoll,,41.5466499,2.1232259,,,0,,,0
TUS_14118,174,La Bassa,,41.5429649,2.1232743,,,0,,,0
TUS_14119,175,Universitat,,41.5460587,2.1197231,,,0,,,0
TUS_14120,176,Estació Centre,,41.5464058,2.1158929,,,0,,,0
TUS_14121,177,Tres Creus,,41.5464134,2.1115153,,,0,,,0
TUS_14122,178,Sant Joan,,41.5482101,2.1095736,,,0,,,0
TUS_14123,179,Les Valls,,41.5487785,2.1075566,,,0,,,0
TUS_14124,18,Dr. Robert,,41.5463104,2.1090531,,,0,,,0
TUS_14125,180,Mercat Central,,41.5480652,2.1059847,,,0,,,0
TUS_14126,181,Calderón,,41.5466690,2.1011300,,,0,,,0
TUS_14127,182,Ibèria - Estació FGC,,41.5429916,2.0990860,,,0,,,0
TUS_14128,184,Damià Forment,,41.5399742,2.0948482,,,0,,,0
TUS_14129,185,Can Feu,,41.5432968,2.0940702,,,0,,,0
TUS_14130,187,Argentina,,41.5441208,2.0907283,,,0,,,0
TUS_14131,188,La Palma,,41.5435829,2.0891459,,,0,,,0
TUS_14132,189,Els Merinals,,41.5446968,2.0876760,,,0,,,0
TUS_14133,19,Casal Pere Quart,,41.5445595,2.1099703,,,0,,,0
TUS_14134,190,Sicília,,41.5475159,2.0854981,,,0,,,0
TUS_14135,191,Turina,,41.5489044,2.0835614,,,0,,,0
TUS_14136,192,Albéniz,,41.5496140,2.0809007,,,0,,,0
TUS_14137,193,Nou,,41.5505447,2.0775266,,,0,,,0
TUS_14138,194,Av. La Pau,,41.5536232,2.0686107,,,0,,,0
TUS_14139,195,Mark Twain,,41.5558052,2.0719154,,,0,,,0
TUS_14140,2,La Prada,,41.5747147,2.0845966,,,0,,,0
TUS_14141,20,Rambla,,41.5415268,2.1114349,,,0,,,0
TUS_14142,200,Can Rull,,41.5481224,2.0864742,,,0,,,0
TUS_14143,201,Larra,,41.5503387,2.0853639,,,0,,,0
TUS_14144,202,Josep Masllovet,,41.5521469,2.0828156,,,0,,,0
TUS_14145,203,Benjamín García,,41.5542259,2.0859270,,,0,,,0
TUS_14146,204,Sant Isidor,,41.5547409,2.0874882,,,0,,,0
TUS_14147,205,Galileu,,41.5553589,2.0899880,,,0,,,0
TUS_14148,206,Olímpia-Trenet del Parc,,41.5534096,2.0909805,,,0,,,0
TUS_14149,207,Paraires,,41.5546875,2.0944726,,,0,,,0
TUS_14150,208,Embarcador,,41.5513077,2.0978737,,,0,,,0
TUS_14151,209,Catalunya,,41.5502663,2.0992739,,,0,,,0
TUS_14152,21,Eixample,,41.5386543,2.1128404,,,0,,,0
TUS_14153,210,Sastre,,41.5509033,2.1019454,,,0,,,0
TUS_14154,211,Luther King,,41.5586929,2.0770276,,,0,,,0
TUS_14155,212,Estació Centre,,41.5461540,2.1157265,,,0,,,0
TUS_14156,213,Gran Via,,41.5431328,2.1169925,,,0,,,0
TUS_14157,214,Palau d'Esports,,41.5403748,2.1171801,,,0,,,0
TUS_14158,215,Bellesguard,,41.5369987,2.1187680,,,0,,,0
TUS_14159,216,Sol i Padrís,,41.5354195,2.1195190,,,0,,,0
TUS_14160,217,Rubió i Ors,,41.5326500,2.1197443,,,0,,,0
TUS_14161,218,Les Termes,,41.5291748,2.1179528,,,0,,,0
TUS_14162,22,Mestre Planas,,41.5358849,2.1141601,,,0,,,0
TUS_14163,224,Santa Maria,,41.5319328,2.1214342,,,0,,,0
TUS_14164,225,Sol i Padrís,,41.5359840,2.1195190,,,0,,,0
TUS_14165,226,Bellesguard,,41.5374413,2.1187627,,,0,,,0
TUS_14166,227,Sant Oleguer,,41.5395813,2.1193206,,,0,,,0
TUS_14167,228,Balmes,,41.5433998,2.1175127,,,0,,,0
TUS_14168,23,Sant Fèlix,,41.5335503,2.1153080,,,0,,,0
TUS_14169,230,Sastre,,41.5511131,2.1024604,,,0,,,0
TUS_14170,231,Embarcador,,41.5508308,2.0982080,,,0,,,0
TUS_14171,232,Paraires,,41.5550041,2.0945103,,,0,,,0
TUS_14172,233,Olímpia-Trenet del Parc,,41.5535049,2.0906370,,,0,,,0
TUS_14173,234,Galileu,,41.5554543,2.0898271,,,0,,,0
TUS_14174,235,Sant Isidor,,41.5548515,2.0874238,,,0,,,0
TUS_14175,236,Benjamín García,,41.5539665,2.0849185,,,0,,,0
TUS_14176,237,Josep Masllovet,,41.5522804,2.0827405,,,0,,,0
TUS_14177,238,Bécquer,,41.5507431,2.0851386,,,0,,,0
TUS_14178,24,Barcelona,,41.5309982,2.1165419,,,0,,,0
TUS_14179,243,Font i Sagué,,41.5619659,2.0910342,,,0,,,0
TUS_14180,244,Adriana,,41.5602570,2.0893335,,,0,,,0
TUS_14181,245,Plini el Vell,,41.5582085,2.0855408,,,0,,,0
TUS_14182,246,Juvenal,,41.5563431,2.0841568,,,0,,,0
TUS_14183,247,Les Oliveres,,41.5477829,2.0869732,,,0,,,0
TUS_14184,248,Serra d'en Camaró,,41.5470810,2.0896554,,,0,,,0
TUS_14185,249,Terrassa,,41.5461464,2.0931478,,,0,,,0
TUS_14186,25,La Creu de Barberà,,41.5296326,2.1171856,,,0,,,0
TUS_14187,250,Dr. Almera,,41.5446129,2.0990162,,,0,,,0
TUS_14188,251,Dones del Tèxtil,,41.5524673,2.1078675,,,0,,,0
TUS_14189,252,Vilarrúbias,,41.5534019,2.1113865,,,0,,,0
TUS_14190,253,Parc Taulí,,41.5568581,2.1091497,,,0,,,0
TUS_14191,254,Agnès Armengol,,41.5590706,2.1058075,,,0,,,0
TUS_14192,255,Navas,,41.5603676,2.1035492,,,0,,,0
TUS_14193,256,Prats de Lluçanès,,41.5614395,2.1007597,,,0,,,0
TUS_14194,257,Espanya,,41.5627518,2.0971603,,,0,,,0
TUS_14195,259,Pavelló Nord,,41.5670090,2.0954704,,,0,,,0
TUS_14196,26,Pizarro,,41.5287209,2.1159732,,,0,,,0
TUS_14197,260,La Selva,,41.5679512,2.0937912,,,0,,,0
TUS_14198,263,Hortènsies,,41.5677948,2.0977342,,,0,,,0
TUS_14199,264,Hostafrancs,,41.5455093,2.0955348,,,0,,,0
TUS_14200,267,La Llanera,,41.5686989,2.0917423,,,0,,,0
TUS_14201,268,La Selva,,41.5675011,2.0940757,,,0,,,0
TUS_14202,269,València,,41.5658073,2.0971978,,,0,,,0
TUS_14203,27,Espronceda,,41.5277367,2.1122556,,,0,,,0
TUS_14204,270,Torreguitart,,41.5651779,2.0991988,,,0,,,0
TUS_14205,271,Can Puiggener,,41.5654030,2.1046543,,,0,,,0
TUS_14206,272,Puig de la Creu,,41.5643349,2.1043432,,,0,,,0
TUS_14207,273,Torrent del Capellà,,41.5667381,2.0993865,,,0,,,0
TUS_14208,274,Torreguitart,,41.5643959,2.0978684,,,0,,,0
TUS_14209,275,Pl. Josep Germà,,41.5612221,2.1003413,,,0,,,0
TUS_14210,276,Mercat Creu Alta,,41.5607224,2.1021545,,,0,,,0
TUS_14211,277,Agnès Armengol,,41.5580406,2.1067357,,,0,,,0
TUS_14212,278,Parc Taulí,,41.5559998,2.1100299,,,0,,,0
TUS_14213,279,Vilarrúbias,,41.5533981,2.1106946,,,0,,,0
TUS_14214,28,Picasso,,41.5269279,2.1092410,,,0,,,0
TUS_14215,280,Hostafrancs,,41.5454597,2.0963717,,,0,,,0
TUS_14216,281,Terrassa,,41.5460548,2.0939469,,,0,,,0
TUS_14217,282,Serra d'en Camaró,,41.5471458,2.0899558,,,0,,,0
TUS_14218,283,Les Oliveres,,41.5482903,2.0859432,,,0,,,0
TUS_14219,284,Juli Garreta,,41.5509453,2.0816410,,,0,,,0
TUS_14220,285,Via Alexandra,,41.5553284,2.0878851,,,0,,,0
TUS_14221,286,Plini el Vell,,41.5584602,2.0864046,,,0,,,0
TUS_14222,287,Adriana,,41.5594559,2.0888345,,,0,,,0
TUS_14223,288,Font i Sagué,,41.5616455,2.0908785,,,0,,,0
TUS_14224,29,Goya,,41.5287132,2.1079266,,,0,,,0
TUS_14225,3,La Plana del Pintor,,41.5738640,2.0867157,,,0,,,0
TUS_14226,30,Estació Sud,,41.5286102,2.1057005,,,0,,,0
TUS_14227,300,La Roureda,,41.5694008,2.0849025,,,0,,,0
TUS_14228,301,Valentí Almirall,,41.5481071,2.0987697,,,0,,,0
TUS_14229,302,Ponent,,41.5458527,2.0994937,,,0,,,0
TUS_14230,303,Comte Jofre,,41.5438423,2.1017950,,,0,,,0
TUS_14231,304,Bombers,,41.5416183,2.1046705,,,0,,,0
TUS_14232,305,Vapor Llonch,,41.5394478,2.1068270,,,0,,,0
TUS_14233,306,Lepant,,41.5371361,2.1091068,,,0,,,0
TUS_14234,307,Buxeda,,41.5348015,2.1113276,,,0,,,0
TUS_14235,308,Sant Fèlix,,41.5323677,2.1136932,,,0,,,0
TUS_14236,309,Girona,,41.5303230,2.1112418,,,0,,,0
TUS_14237,310,Comerç,,41.5294266,2.1079643,,,0,,,0
TUS_14238,311,Joanot Martorell,,41.5317574,2.1065104,,,0,,,0
TUS_14239,312,Joaquim Blume,,41.5331726,2.1007009,,,0,,,0
TUS_14240,313,Bernat Metge,,41.5314140,2.1005130,,,0,,,0
TUS_14241,316,Zona Industrial,,41.5286102,2.1017523,,,0,,,0
TUS_14242,317,Zona Industrial,,41.5292091,2.1018200,,,0,,,0
TUS_14243,320,Bernat Metge,,41.5314407,2.1006632,,,0,,,0
TUS_14244,322,Joaquim Blume,,41.5329514,2.1007328,,,0,,,0
TUS_14245,323,Joanot Martorell,,41.5317154,2.1063066,,,0,,,0
TUS_14246,324,Comerç,,41.5292931,2.1080284,,,0,,,0
TUS_14247,325,Girona,,41.5304489,2.1122289,,,0,,,0
TUS_14248,326,Buxeda,,41.5350304,2.1113117,,,0,,,0
TUS_14249,327,Lepant,,41.5367203,2.1096499,,,0,,,0
TUS_14250,328,Vapor Llonch,,41.5398598,2.1066101,,,0,,,0
TUS_14251,329,Bombers,,41.5410843,2.1054213,,,0,,,0
TUS_14252,332,Comte Jofre,,41.5440712,2.1014409,,,0,,,0
TUS_14253,333,Ponent,,41.5453186,2.0998423,,,0,,,0
TUS_14254,334,Valentí Almirall,,41.5487785,2.0987856,,,0,,,0
TUS_14255,339,Barcelona,,41.5315590,2.1157639,,,0,,,0
TUS_14256,341,Sant Ferran,,41.5354195,2.0988178,,,0,,,0
TUS_14257,342,Treball,,41.5365639,2.1016018,,,0,,,0
TUS_14258,343,Permanyer,,41.5395927,2.1001642,,,0,,,0
TUS_14259,344,Estació FGC,,41.5418434,2.1019506,,,0,,,0
TUS_14260,345,Estació Centre,,41.5464745,2.1160851,,,0,,,0
TUS_14261,346,La Cobertera,,41.5507278,2.1140420,,,0,,,0
TUS_14262,347,Salut,,41.5530777,2.1129315,,,0,,,0
TUS_14263,348,Jaume Girbau,,41.5605316,2.1012909,,,0,,,0
TUS_14264,35,Goya,,41.5286102,2.1077712,,,0,,,0
TUS_14265,354,Salut,,41.5526505,2.1127920,,,0,,,0
TUS_14266,355,Creueta,,41.5503654,2.1139133,,,0,,,0
TUS_14267,356,Estació Centre,,41.5465202,2.1156244,,,0,,,0
TUS_14268,357,Estació FGC,,41.5423851,2.1020794,,,0,,,0
TUS_14269,358,Gràcia,,41.5397339,2.1014731,,,0,,,0
TUS_14270,359,Treball,,41.5369225,2.1027930,,,0,,,0
TUS_14271,36,Picasso,,41.5268440,2.1097827,,,0,,,0
TUS_14272,360,Sant Ferran,,41.5353508,2.0975196,,,0,,,0
TUS_14273,366,Puig de la Creu,,41.5639038,2.1046436,,,0,,,0
TUS_14274,367,La Granada,,41.5617142,2.1029215,,,0,,,0
TUS_14275,368,Somosierra,,41.5601120,2.1056790,,,0,,,0
TUS_14276,369,Brutau,,41.5374489,2.1152301,,,0,,,0
TUS_14277,37,Espronceda,,41.5278206,2.1130924,,,0,,,0
TUS_14278,370,Palau d'Esports,,41.5380516,2.1175289,,,0,,,0
TUS_14279,374,Pizarro,,41.5283241,2.1150291,,,0,,,0
TUS_14280,375,La Creu de Barberà,,41.5293236,2.1168315,,,0,,,0
TUS_14281,377,Barcelona,,41.5316925,2.1167564,,,0,,,0
TUS_14282,378,Rubió i Ors,,41.5324821,2.1197498,,,0,,,0
TUS_14283,379,Brutau,,41.5375786,2.1155100,,,0,,,0
TUS_14284,38,Fontanella,,41.5295334,2.1140957,,,0,,,0
TUS_14285,380,Navas,,41.5603142,2.1038496,,,0,,,0
TUS_14286,381,Florit,,41.5618820,2.1029751,,,0,,,0
TUS_14287,382,Puig de la Creu,,41.5642586,2.1047938,,,0,,,0
TUS_14288,383,Can Puiggener,,41.5657043,2.1044238,,,0,,,0
TUS_14289,384,La Llanera,,41.5690384,2.0915060,,,0,,,0
TUS_14290,385,La Bonaigua,,41.5701981,2.0889740,,,0,,,0
TUS_14291,386,Marçal Ballús,,41.5704041,2.0862384,,,0,,,0
TUS_14292,387,Sant Julià,,41.5715103,2.0854175,,,0,,,0
TUS_14293,388,Armand Obiols,,41.5723991,2.0840390,,,0,,,0
TUS_14294,39,Sant Fèlix,,41.5324669,2.1138327,,,0,,,0
TUS_14295,390,Zamenhof,,41.5519295,2.1060801,,,0,,,0
TUS_14296,391,Zamenhof,,41.5519638,2.1056414,,,0,,,0
TUS_14297,392,Sardà,,41.5390587,2.1119285,,,0,,,0
TUS_14298,393,Latorre,,41.5383606,2.1091399,,,0,,,0
TUS_14299,394,Cifuentes,,41.5522537,2.0825529,,,0,,,0
TUS_14300,395,Sant Julià,,41.5700569,2.0859647,,,0,,,0
TUS_14301,396,Sant Cugat,,41.5459747,2.1048045,,,0,,,0
TUS_14302,397,Sant Ferran,,41.5381775,2.1077602,,,0,,,0
TUS_14303,398,República,,41.5455971,2.1098094,,,0,,,0
TUS_14304,399,Dones del Tèxtil,,41.5521545,2.1067572,,,0,,,0
TUS_14305,4,Himàlaia,,41.5728874,2.0879977,,,0,,,0
TUS_14306,40,Mestre Planas,,41.5352287,2.1146698,,,0,,,0
TUS_14307,401,República,,41.5457039,2.1104479,,,0,,,0
TUS_14308,404,Mèxic,,41.5441589,2.0935018,,,0,,,0
TUS_14309,41,Eixample,,41.5380135,2.1132696,,,0,,,0
TUS_14310,42,Rambla,,41.5407333,2.1119177,,,0,,,0
TUS_14311,43,Casal Pere Quart,,41.5443420,2.1102333,,,0,,,0
TUS_14312,46,Massagué,,41.5513344,2.1068912,,,0,,,0
TUS_14313,47,Onze de Setembre,,41.5541039,2.1035116,,,0,,,0
TUS_14314,48,La Creu Alta,,41.5558548,2.1022563,,,0,,,0
TUS_14315,49,Francesc Macià,,41.5545769,2.0977020,,,0,,,0
TUS_14316,5,Parc del Nord,,41.5712051,2.0902829,,,0,,,0
TUS_14317,50,Pl. Concòrdia,,41.5587769,2.0973372,,,0,,,0
TUS_14318,51,Espanya,,41.5620003,2.0952666,,,0,,,0
TUS_14319,52,Alcalde Ribé,,41.5623665,2.0926113,,,0,,,0
TUS_14320,53,Ca n'Oriac,,41.5642815,2.0904386,,,0,,,0
TUS_14321,54,Matadepera,,41.5669670,2.0889366,,,0,,,0
TUS_14322,55,Pi,,41.5681114,2.0874827,,,0,,,0
TUS_14323,56,La Roureda,,41.5693169,2.0856965,,,0,,,0
TUS_14324,57,Mercè Rodoreda,,41.5712318,2.0830357,,,0,,,0
TUS_14325,58,Ricard Marlet,,41.5728912,2.0815980,,,0,,,0
TUS_14326,59,Francesc Trabal,,41.5741158,2.0846558,,,0,,,0
TUS_14327,6,La Bonaigua,,41.5702209,2.0893281,,,0,,,0
TUS_14328,600,Sol,,41.5392647,2.1117301,,,0,,,0
TUS_14329,614,Primavera,,41.5744400,2.0848649,,,0,,,0
TUS_14330,621,Còrdova,,41.5614929,2.0817912,,,0,,,0
TUS_14331,622,Madrid,,41.5584259,2.0831001,,,0,,,0
TUS_14332,623,Moscou,,41.5585747,2.0856802,,,0,,,0
TUS_14333,624,Madrid,,41.5590286,2.0840442,,,0,,,0
TUS_14334,625,Madrid,,41.5596619,2.0829401,,,0,,,0
TUS_14335,626,Còrdova,,41.5612946,2.0824349,,,0,,,0
TUS_14336,631,Prats,,41.5579605,2.1018648,,,0,,,0
TUS_14337,632,Prats,,41.5574875,2.1018648,,,0,,,0
TUS_14338,634,Font i Sagué,,41.5622063,2.0907927,,,0,,,0
TUS_14339,635,Rotonda de Castellar,,41.5667648,2.1011622,,,0,,,0
TUS_14340,637,Rotonda de Castellar,,41.5665894,2.1014249,,,0,,,0
TUS_14341,64,Les Palmeres,,41.5737381,2.0819788,,,0,,,0
TUS_14342,640,Francesc Izard,,41.5549011,2.1117301,,,0,,,0
TUS_14343,641,Can Llong,,41.5620193,2.0820200,,,0,,,0
TUS_14344,642,Praga,,41.5649452,2.0831537,,,0,,,0
TUS_14345,643,La Roureda,,41.5689812,2.0848899,,,0,,,0
TUS_14346,644,Praga,,41.5650139,2.0829821,,,0,,,0
TUS_14347,645,Puig Antich,,41.5568924,2.0729506,,,0,,,0
TUS_14348,646,Marcel·lí Massana,,41.5557976,2.0733421,,,0,,,0
TUS_14349,647,Bertha Von Suttner,,41.5563126,2.0767217,,,0,,,0
TUS_14350,648,Walter Benjamin,,41.5610771,2.0762498,,,0,,,0
TUS_14351,649,Louis Braille,,41.5624580,2.0762658,,,0,,,0
TUS_14352,65,Lles,,41.5721970,2.0812707,,,0,,,0
TUS_14353,650,Can Llong,,41.5619392,2.0817399,,,0,,,0
TUS_14354,651,Estrasburg,,41.5620651,2.0869946,,,0,,,0
TUS_14355,652,Estrasburg,,41.5621872,2.0868337,,,0,,,0
TUS_14356,653,Puig Antich,,41.5569267,2.0730417,,,0,,,0
TUS_14357,654,Concòrdia Nord,,41.5618896,2.0919890,,,0,,,0
TUS_14358,657,Leonardo da Vinci,,41.5237694,2.1102118,,,0,,,0
TUS_14360,66,Àger,,41.5709877,2.0830410,,,0,,,0
TUS_14361,660,Puig i Cadafalch,,41.5349503,2.1047668,,,0,,,0
TUS_14362,661,Gegants de Gràcia,,41.5370216,2.1061726,,,0,,,0
TUS_14363,662,Jocs Florals,,41.5373497,2.1061242,,,0,,,0
TUS_14364,663,Maria Aguiló,,41.5355034,2.1046436,,,0,,,0
TUS_14365,664,Luther King,,41.5595016,2.0764749,,,0,,,0
TUS_14366,666,Dones del Tèxtil,,41.5523376,2.1070361,,,0,,,0
TUS_14367,667,Castellarnau,,41.5574951,2.0777142,,,0,,,0
TUS_14368,668,Castellarnau,,41.5571098,2.0776124,,,0,,,0
TUS_14369,67,La Roureda,,41.5697250,2.0848167,,,0,,,0
TUS_14370,670,John Lennon,,41.5584908,2.0743454,,,0,,,0
TUS_14371,671,Eivissa,,41.5472565,2.0883627,,,0,,,0
TUS_14372,673,Can Llobateres,,41.5399704,2.1306396,,,0,,,0
TUS_14373,674,Llum de la Selva,,41.5611458,2.1044827,,,0,,,0
TUS_14374,675,Can Diviu,,41.5139008,2.1083932,,,0,,,0
TUS_14375,676,Aeroport,,41.5185432,2.1024227,,,0,,,0
TUS_14376,677,Sant Pau Riu-sec,,41.5116539,2.1083128,,,0,,,0
TUS_14377,678,Sant Pau Riu-sec,,41.5116386,2.1085329,,,0,,,0
TUS_14378,679,Sabadell-Badia,,41.5136337,2.1124327,,,0,,,0
TUS_14379,68,La Concòrdia,,41.5601883,2.0945048,,,0,,,0
TUS_14380,680,Pla de Fonollar,,41.5117683,2.1101367,,,0,,,0
TUS_14381,681,Pla de Fonollar,,41.5116463,2.1105015,,,0,,,0
TUS_14382,682,Espanya,,41.5627060,2.0968866,,,0,,,0
TUS_14383,683,Agnès Armengol,,41.5398216,2.1314013,,,0,,,0
TUS_14384,684,Parc del Nord,,41.5710144,2.0904760,,,0,,,0
TUS_14385,688,Turó de Sant Pau de Riu-sec,,41.5140533,2.0979648,,,0,,,0
TUS_14386,689,Bellesguard,,41.5379791,2.1188326,,,0,,,0
TUS_14387,69,Francesc Layret,,41.5591736,2.1007276,,,0,,,0
TUS_14388,690,La Bassa,,41.5384827,2.1244812,,,0,,,0
TUS_14389,691,Mas Carbó,,41.5422096,2.1327853,,,0,,,0
TUS_14390,692,Can Bordoll,,41.5421028,2.1304035,,,0,,,0
TUS_14391,693,Oliana,,41.5504875,2.1253502,,,0,,,0
TUS_14392,694,Can Camps,,41.5348053,2.1318305,,,0,,,0
TUS_14393,695,Ca n'Alzina,,41.5373917,2.1333861,,,0,,,0
TUS_14394,696,Corrals Nous,,41.5378799,2.1372914,,,0,,,0
TUS_14395,697,Can Mimó,,41.5400047,2.1356122,,,0,,,0
TUS_14396,698,Can Gener,,41.5419617,2.1340942,,,0,,,0
TUS_14397,699,Parc Taulí,,41.5566826,2.1094341,,,0,,,0
TUS_14398,7,El Farell,,41.5676613,2.0879014,,,0,,,0
TUS_14399,700,Estació Centre,,41.5467415,2.1154635,,,0,,,0
TUS_14400,702,Barcelona Moda Centre,,41.5357971,2.0890172,,,0,,,0
TUS_14401,703,Lluís Companys,,41.5331612,2.0848327,,,0,,,0
TUS_14402,704,Mil·lenari,,41.5385857,2.0966346,,,0,,,0
TUS_14403,705,Can Torres,,41.5358543,2.0940971,,,0,,,0
TUS_14404,706,Poble Sec,,41.5279274,2.0897520,,,0,,,0
TUS_14405,707,Rosales,,41.5265160,2.0874231,,,0,,,0
TUS_14406,708,Estació Sant Quirze (FGC),,41.5306664,2.0873170,,,0,,,0
TUS_14407,709,1 d'Octubre,,41.5307617,2.0852029,,,0,,,0
TUS_14408,71,Verge de la Paloma,,41.5261688,2.1197605,,,0,,,0
TUS_14409,710,Antoni Gaudí,,41.5311546,2.0808630,,,0,,,0
TUS_14410,711,Pladellorens,,41.5330620,2.0786476,,,0,,,0
TUS_14411,712,Vila Puig,,41.5349312,2.0777678,,,0,,,0
TUS_14412,713,C.A.P.,,41.5364037,2.0758474,,,0,,,0
TUS_14413,714,Ribera,,41.5361061,2.0728111,,,0,,,0
TUS_14414,715,Garraf,,41.5386925,2.0735850,,,0,,,0
TUS_14415,716,Segrià,,41.5407410,2.0710261,,,0,,,0
TUS_14416,717,Bages,,41.5418549,2.0691152,,,0,,,0
TUS_14417,718,Caus,,41.5399513,2.0658429,,,0,,,0
TUS_14418,719,Can Pallars,,41.5384178,2.0668030,,,0,,,0
TUS_14419,72,Nova Creu,,41.5246506,2.1204739,,,0,,,0
TUS_14420,720,Assís,,41.5351906,2.0717704,,,0,,,0
TUS_14421,721,Sant Quirze Jardí,,41.5342216,2.0726125,,,0,,,0
TUS_14422,722,Joaquín Rodrigo,,41.5321846,2.0734119,,,0,,,0
TUS_14423,727,Bretanya,,41.5281219,2.0695710,,,0,,,0
TUS_14424,728,Guilleries,,41.5261421,2.0683749,,,0,,,0
TUS_14425,729,Sant Quirze Parc,,41.5252342,2.0687180,,,0,,,0
TUS_14426,73,Antoni Maura,,41.5236321,2.1183496,,,0,,,0
TUS_14427,730,Bruc,,41.5268440,2.0723281,,,0,,,0
TUS_14428,731,Bosc,,41.5286446,2.0754070,,,0,,,0
TUS_14429,732,Llaurador,,41.5309982,2.0800853,,,0,,,0
TUS_14430,733,Bages,,41.5356102,2.0749462,,,0,,,0
TUS_14431,734,Ribera,,41.5370293,2.0748441,,,0,,,0
TUS_14432,735,C.A.P.,,41.5357933,2.0767431,,,0,,,0
TUS_14433,736,Olivera,,41.5350342,2.0784814,,,0,,,0
TUS_14434,737,Sabadell,,41.5343552,2.0801067,,,0,,,0
TUS_14435,738,Montseny,,41.5345573,2.0822043,,,0,,,0
TUS_14436,739,Sant Jaume,,41.5322418,2.0845270,,,0,,,0
TUS_14437,74,Pau Vila,,41.5224800,2.1147599,,,0,,,0
TUS_14438,740,1 d'Octubre,,41.5312424,2.0858629,,,0,,,0
TUS_14439,741,Lluís Companys,,41.5329018,2.0853477,,,0,,,0
TUS_14440,742,Camí del Mas,,41.5355988,2.0847180,,,0,,,0
TUS_14441,743,Estació Sant Quirze (FGC),,41.5294228,2.0870590,,,0,,,0
TUS_14442,744,Rosales,,41.5265350,2.0872684,,,0,,,0
TUS_14443,745,Poble Sec,,41.5278778,2.0900409,,,0,,,0
TUS_14444,746,Rocafort,,41.5389328,2.0972996,,,0,,,0
TUS_14445,747,Av. Vallès,,41.5301132,2.0738947,,,0,,,0
TUS_14446,748,Prat,,41.5289345,2.0713520,,,0,,,0
TUS_14447,751,Guadiana,,41.5475883,2.1245079,,,0,,,0
TUS_14448,752,Parc Taulí,,41.5559006,2.1101899,,,0,,,0
TUS_14449,753,Can Roqueta,,41.5417252,2.1312404,,,0,,,0
TUS_14451,757,Pl. Comtal,,41.5298805,2.1160965,,,0,,,0
TUS_14452,758,Budapest,,41.5626984,2.0871823,,,0,,,0
TUS_14453,759,Gran Via - Baixador,,41.5394821,2.1133554,,,0,,,0
TUS_14454,760,Budapest,,41.5626030,2.0870805,,,0,,,0
TUS_14455,761,Sarajevo,,41.5634346,2.0787978,,,0,,,0
TUS_14456,762,Sarajevo,,41.5633011,2.0789642,,,0,,,0
TUS_14457,77,Parc Central,,41.5233765,2.1130924,,,0,,,0
TUS_14458,78,Reis Catòlics,,41.5240059,2.1148360,,,0,,,0
TUS_14459,79,Eduard Brossa,,41.5246773,2.1167672,,,0,,,0
TUS_14460,8,Matadepera,,41.5658722,2.0893872,,,0,,,0
TUS_14461,80,Magí Colet,,41.5256348,2.1195567,,,0,,,0
TUS_14462,81,Verge de la Paloma,,41.5268402,2.1192992,,,0,,,0
TUS_14463,82,La Creu de Barberà,,41.5299187,2.1172447,,,0,,,0
TUS_14464,83,Barcelona,,41.5320282,2.1161878,,,0,,,0
TUS_14465,84,Francesc Layret,,41.5592918,2.1007864,,,0,,,0
TUS_14466,85,Pl. Concòrdia,,41.5590057,2.0979862,,,0,,,0
TUS_14467,86,La Concòrdia,,41.5601006,2.0949447,,,0,,,0
TUS_14468,87,La Bonaigua,,41.5698280,2.0890598,,,0,,,0
TUS_14469,88,Vall d'Aran,,41.5724297,2.0921230,,,0,,,0
TUS_14470,89,Balcans,,41.5738487,2.0904655,,,0,,,0
TUS_14471,9,Ca n'Oriac,,41.5630302,2.0909429,,,0,,,0
TUS_14472,90,Caucas,,41.5743332,2.0877941,,,0,,,0
TUS_14473,96,Almogàvers,,41.5299377,2.1199484,,,0,,,0
TUS_14474,97,Francesc Casañas,,41.5286789,2.1220028,,,0,,,0
TUS_14475,98,Can Viloca,,41.5273781,2.1229148,,,0,,,0
TUS_14476,99,La Romànica,,41.5277061,2.1244006,,,0,,,0
TUS_16588,765,Torrent de la Romeua,,41.5662498,2.0842600,,,0,,,0
TUS_16589,766,Torrent de la Romeua,,41.5662613,2.0843000,,,0,,,0
TUS_16590,767,La Roureda,,41.5687103,2.0845399,,,0,,,0
TUS_19194,768,Pl. Concòrdia,,41.5583992,2.0961699,,,0,,,0
TUS_19196,659,Catalunya,,41.5504112,2.0993900,,,0,,,0
TUS_19576,769,Picasso,,41.5270691,2.1087301,,,0,,,0
